[
    {
        "Country": "United States of America",
        "CountryCode": "US",
        "Province": "Illinois",
        "City": "Scott",
        "CityCode": "17171",
        "Lat": "39.64",
        "Lon": "-90.48",
        "Cases": 946,
        "Status": "confirmed",
        "Date": "2022-01-04T00:00:00Z"
    },
    {
        "Country": "United States of America",
        "CountryCode": "US",
        "Province": "Michigan",
        "City": "Grand Traverse",
        "CityCode": "26055",
        "Lat": "44.7",
        "Lon": "-85.56",
        "Cases": 12511,
        "Status": "confirmed",
        "Date": "2022-01-04T00:00:00Z"
    },
    {
        "Country": "United States of America",
        "CountryCode": "US",
        "Province": "Kentucky",
        "City": "Boyd",
        "CityCode": "21019",
        "Lat": "38.36",
        "Lon": "-82.69",
        "Cases": 10322,
        "Status": "confirmed",
        "Date": "2022-01-04T00:00:00Z"
    },
    {
        "Country": "United States of America",
        "CountryCode": "US",
        "Province": "Missouri",
        "City": "Hickory",
        "CityCode": "29085",
        "Lat": "37.94",
        "Lon": "-93.32",
        "Cases": 1373,
        "Status": "confirmed",
        "Date": "2022-01-04T00:00:00Z"
    },
    {
        "Country": "United States of America",
        "CountryCode": "US",
        "Province": "Maine",
        "City": "Out of ME",
        "CityCode": "80023",
        "Lat": "0",
        "Lon": "0",
        "Cases": 0,
        "Status": "confirmed",
        "Date": "2022-01-04T00:00:00Z"
    },
    {
        "Country": "United States of America",
        "CountryCode": "US",
        "Province": "Kansas",
        "City": "Reno",
        "CityCode": "20155",
        "Lat": "37.95",
        "Lon": "-98.09",
        "Cases": 14118,
        "Status": "confirmed",
        "Date": "2022-01-04T00:00:00Z"
    },
    {
        "Country": "United States of America",
        "CountryCode": "US",
        "Province": "Georgia",
        "City": "Cobb",
        "CityCode": "13067",
        "Lat": "33.94",
        "Lon": "-84.58",
        "Cases": 135065,
        "Status": "confirmed",
        "Date": "2022-01-04T00:00:00Z"
    },
    {
        "Country": "United States of America",
        "CountryCode": "US",
        "Province": "Minnesota",
        "City": "Norman",
        "CityCode": "27107",
        "Lat": "47.33",
        "Lon": "-96.46",
        "Cases": 1100,
        "Status": "confirmed",
        "Date": "2022-01-04T00:00:00Z"
    },
    {
        "Country": "United States of America",
        "CountryCode": "US",
        "Province": "Indiana",
        "City": "Lawrence",
        "CityCode": "18093",
        "Lat": "38.84",
        "Lon": "-86.48",
        "Cases": 8991,
        "Status": "confirmed",
        "Date": "2022-01-04T00:00:00Z"
    },
    {
        "Country": "United States of America",
        "CountryCode": "US",
        "Province": "Florida",
        "City": "Indian River",
        "CityCode": "12061",
        "Lat": "27.69",
        "Lon": "-80.61",
        "Cases": 23455,
        "Status": "confirmed",
        "Date": "2022-01-04T00:00:00Z"
    },
    {
        "Country": "United States of America",
        "CountryCode": "US",
        "Province": "West Virginia",
        "City": "Grant",
        "CityCode": "54023",
        "Lat": "39.1",
        "Lon": "-79.19",
        "Cases": 2784,
        "Status": "confirmed",
        "Date": "2022-01-04T00:00:00Z"
    },
    {
        "Country": "United States of America",
        "CountryCode": "US",
        "Province": "Arkansas",
        "City": "Boone",
        "CityCode": "5009",
        "Lat": "36.31",
        "Lon": "-93.09",
        "Cases": 7075,
        "Status": "confirmed",
        "Date": "2022-01-04T00:00:00Z"
    },
    {
        "Country": "United States of America",
        "CountryCode": "US",
        "Province": "Arizona",
        "City": "Greenlee",
        "CityCode": "4011",
        "Lat": "33.21",
        "Lon": "-109.24",
        "Cases": 1506,
        "Status": "confirmed",
        "Date": "2022-01-04T00:00:00Z"
    },
    {
        "Country": "United States of America",
        "CountryCode": "US",
        "Province": "Delaware",
        "City": "Out of DE",
        "CityCode": "80010",
        "Lat": "0",
        "Lon": "0",
        "Cases": 0,
        "Status": "confirmed",
        "Date": "2022-01-04T00:00:00Z"
    },
    {
        "Country": "United States of America",
        "CountryCode": "US",
        "Province": "Utah",
        "City": "Duchesne",
        "CityCode": "49013",
        "Lat": "40.3",
        "Lon": "-110.43",
        "Cases": 0,
        "Status": "confirmed",
        "Date": "2022-01-04T00:00:00Z"
    },
    {
        "Country": "United States of America",
        "CountryCode": "US",
        "Province": "Indiana",
        "City": "Allen",
        "CityCode": "18003",
        "Lat": "41.09",
        "Lon": "-85.07",
        "Cases": 77236,
        "Status": "confirmed",
        "Date": "2022-01-04T00:00:00Z"
    },
    {
        "Country": "United States of America",
        "CountryCode": "US",
        "Province": "Diamond Princess",
        "City": "",
        "CityCode": "88888",
        "Lat": "0",
        "Lon": "0",
        "Cases": 49,
        "Status": "confirmed",
        "Date": "2022-01-04T00:00:00Z"
    },
    {
        "Country": "United States of America",
        "CountryCode": "US",
        "Province": "Tennessee",
        "City": "Union",
        "CityCode": "47173",
        "Lat": "36.29",
        "Lon": "-83.84",
        "Cases": 3741,
        "Status": "confirmed",
        "Date": "2022-01-04T00:00:00Z"
    },
    {
        "Country": "United States of America",
        "CountryCode": "US",
        "Province": "Maryland",
        "City": "Allegany",
        "CityCode": "24001",
        "Lat": "39.62",
        "Lon": "-78.69",
        "Cases": 12243,
        "Status": "confirmed",
        "Date": "2022-01-04T00:00:00Z"
    },
    {
        "Country": "United States of America",
        "CountryCode": "US",
        "Province": "New Jersey",
        "City": "Hudson",
        "CityCode": "34017",
        "Lat": "40.74",
        "Lon": "-74.08",
        "Cases": 128565,
        "Status": "confirmed",
        "Date": "2022-01-04T00:00:00Z"
    },
    {
        "Country": "United States of America",
        "CountryCode": "US",
        "Province": "Puerto Rico",
        "City": "San Sebastian",
        "CityCode": "72131",
        "Lat": "18.33",
        "Lon": "-66.97",
        "Cases": 3332,
        "Status": "confirmed",
        "Date": "2022-01-04T00:00:00Z"
    },
    {
        "Country": "United States of America",
        "CountryCode": "US",
        "Province": "Wyoming",
        "City": "Unassigned",
        "CityCode": "90056",
        "Lat": "0",
        "Lon": "0",
        "Cases": 0,
        "Status": "confirmed",
        "Date": "2022-01-04T00:00:00Z"
    },
    {
        "Country": "United States of America",
        "CountryCode": "US",
        "Province": "Georgia",
        "City": "Hart",
        "CityCode": "13147",
        "Lat": "34.35",
        "Lon": "-82.97",
        "Cases": 3764,
        "Status": "confirmed",
        "Date": "2022-01-04T00:00:00Z"
    },
    {
        "Country": "United States of America",
        "CountryCode": "US",
        "Province": "Missouri",
        "City": "Grundy",
        "CityCode": "29079",
        "Lat": "40.11",
        "Lon": "-93.57",
        "Cases": 1904,
        "Status": "confirmed",
        "Date": "2022-01-04T00:00:00Z"
    },
    {
        "Country": "United States of America",
        "CountryCode": "US",
        "Province": "Kansas",
        "City": "Osborne",
        "CityCode": "20141",
        "Lat": "39.35",
        "Lon": "-98.77",
        "Cases": 598,
        "Status": "confirmed",
        "Date": "2022-01-04T00:00:00Z"
    },
    {
        "Country": "United States of America",
        "CountryCode": "US",
        "Province": "Colorado",
        "City": "Grand",
        "CityCode": "8049",
        "Lat": "40.11",
        "Lon": "-106.12",
        "Cases": 2649,
        "Status": "confirmed",
        "Date": "2022-01-04T00:00:00Z"
    },
    {
        "Country": "United States of America",
        "CountryCode": "US",
        "Province": "Nebraska",
        "City": "Pierce",
        "CityCode": "31139",
        "Lat": "42.26",
        "Lon": "-97.6",
        "Cases": 998,
        "Status": "confirmed",
        "Date": "2022-01-04T00:00:00Z"
    },
    {
        "Country": "United States of America",
        "CountryCode": "US",
        "Province": "Minnesota",
        "City": "Sibley",
        "CityCode": "27143",
        "Lat": "44.58",
        "Lon": "-94.23",
        "Cases": 2812,
        "Status": "confirmed",
        "Date": "2022-01-04T00:00:00Z"
    },
    {
        "Country": "United States of America",
        "CountryCode": "US",
        "Province": "Pennsylvania",
        "City": "Bedford",
        "CityCode": "42009",
        "Lat": "40.01",
        "Lon": "-78.49",
        "Cases": 8865,
        "Status": "confirmed",
        "Date": "2022-01-04T00:00:00Z"
    },
    {
        "Country": "United States of America",
        "CountryCode": "US",
        "Province": "Montana",
        "City": "Fergus",
        "CityCode": "30027",
        "Lat": "47.26",
        "Lon": "-109.22",
        "Cases": 1911,
        "Status": "confirmed",
        "Date": "2022-01-04T00:00:00Z"
    },
    {
        "Country": "United States of America",
        "CountryCode": "US",
        "Province": "North Dakota",
        "City": "Sargent",
        "CityCode": "38081",
        "Lat": "46.11",
        "Lon": "-97.63",
        "Cases": 786,
        "Status": "confirmed",
        "Date": "2022-01-04T00:00:00Z"
    },
    {
        "Country": "United States of America",
        "CountryCode": "US",
        "Province": "Washington",
        "City": "Wahkiakum",
        "CityCode": "53069",
        "Lat": "46.29",
        "Lon": "-123.43",
        "Cases": 316,
        "Status": "confirmed",
        "Date": "2022-01-04T00:00:00Z"
    },
    {
        "Country": "United States of America",
        "CountryCode": "US",
        "Province": "Ohio",
        "City": "Ashtabula",
        "CityCode": "39007",
        "Lat": "41.71",
        "Lon": "-80.75",
        "Cases": 15983,
        "Status": "confirmed",
        "Date": "2022-01-04T00:00:00Z"
    },
    {
        "Country": "United States of America",
        "CountryCode": "US",
        "Province": "New Jersey",
        "City": "Middlesex",
        "CityCode": "34023",
        "Lat": "40.44",
        "Lon": "-74.41",
        "Cases": 145193,
        "Status": "confirmed",
        "Date": "2022-01-04T00:00:00Z"
    },
    {
        "Country": "United States of America",
        "CountryCode": "US",
        "Province": "West Virginia",
        "City": "Harrison",
        "CityCode": "54033",
        "Lat": "39.29",
        "Lon": "-80.38",
        "Cases": 13761,
        "Status": "confirmed",
        "Date": "2022-01-04T00:00:00Z"
    },
    {
        "Country": "United States of America",
        "CountryCode": "US",
        "Province": "Tennessee",
        "City": "Jackson",
        "CityCode": "47087",
        "Lat": "36.36",
        "Lon": "-85.67",
        "Cases": 2270,
        "Status": "confirmed",
        "Date": "2022-01-04T00:00:00Z"
    },
    {
        "Country": "United States of America",
        "CountryCode": "US",
        "Province": "Vermont",
        "City": "Out of VT",
        "CityCode": "80050",
        "Lat": "0",
        "Lon": "0",
        "Cases": 0,
        "Status": "confirmed",
        "Date": "2022-01-04T00:00:00Z"
    },
    {
        "Country": "United States of America",
        "CountryCode": "US",
        "Province": "Iowa",
        "City": "Boone",
        "CityCode": "19015",
        "Lat": "42.04",
        "Lon": "-93.93",
        "Cases": 4313,
        "Status": "confirmed",
        "Date": "2022-01-04T00:00:00Z"
    },
    {
        "Country": "United States of America",
        "CountryCode": "US",
        "Province": "Michigan",
        "City": "Missaukee",
        "CityCode": "26113",
        "Lat": "44.34",
        "Lon": "-85.09",
        "Cases": 2260,
        "Status": "confirmed",
        "Date": "2022-01-04T00:00:00Z"
    },
    {
        "Country": "United States of America",
        "CountryCode": "US",
        "Province": "Montana",
        "City": "Pondera",
        "CityCode": "30073",
        "Lat": "48.23",
        "Lon": "-112.23",
        "Cases": 852,
        "Status": "confirmed",
        "Date": "2022-01-04T00:00:00Z"
    },
    {
        "Country": "United States of America",
        "CountryCode": "US",
        "Province": "Wyoming",
        "City": "Converse",
        "CityCode": "56009",
        "Lat": "42.97",
        "Lon": "-105.51",
        "Cases": 2397,
        "Status": "confirmed",
        "Date": "2022-01-04T00:00:00Z"
    },
    {
        "Country": "United States of America",
        "CountryCode": "US",
        "Province": "Texas",
        "City": "Dimmit",
        "CityCode": "48127",
        "Lat": "28.42",
        "Lon": "-99.76",
        "Cases": 4026,
        "Status": "confirmed",
        "Date": "2022-01-04T00:00:00Z"
    },
    {
        "Country": "United States of America",
        "CountryCode": "US",
        "Province": "New York",
        "City": "Albany",
        "CityCode": "36001",
        "Lat": "42.6",
        "Lon": "-73.98",
        "Cases": 42841,
        "Status": "confirmed",
        "Date": "2022-01-04T00:00:00Z"
    },
    {
        "Country": "United States of America",
        "CountryCode": "US",
        "Province": "Kentucky",
        "City": "Knox",
        "CityCode": "21121",
        "Lat": "36.89",
        "Lon": "-83.85",
        "Cases": 8075,
        "Status": "confirmed",
        "Date": "2022-01-04T00:00:00Z"
    },
    {
        "Country": "United States of America",
        "CountryCode": "US",
        "Province": "New York",
        "City": "Washington",
        "CityCode": "36115",
        "Lat": "43.31",
        "Lon": "-73.43",
        "Cases": 8641,
        "Status": "confirmed",
        "Date": "2022-01-04T00:00:00Z"
    },
    {
        "Country": "United States of America",
        "CountryCode": "US",
        "Province": "Florida",
        "City": "Gadsden",
        "CityCode": "12039",
        "Lat": "30.58",
        "Lon": "-84.62",
        "Cases": 9581,
        "Status": "confirmed",
        "Date": "2022-01-04T00:00:00Z"
    },
    {
        "Country": "United States of America",
        "CountryCode": "US",
        "Province": "Ohio",
        "City": "Monroe",
        "CityCode": "39111",
        "Lat": "39.73",
        "Lon": "-81.08",
        "Cases": 2656,
        "Status": "confirmed",
        "Date": "2022-01-04T00:00:00Z"
    },
    {
        "Country": "United States of America",
        "CountryCode": "US",
        "Province": "Texas",
        "City": "Bandera",
        "CityCode": "48019",
        "Lat": "29.75",
        "Lon": "-99.25",
        "Cases": 2635,
        "Status": "confirmed",
        "Date": "2022-01-04T00:00:00Z"
    },
    {
        "Country": "United States of America",
        "CountryCode": "US",
        "Province": "Texas",
        "City": "Reeves",
        "CityCode": "48389",
        "Lat": "31.32",
        "Lon": "-103.69",
        "Cases": 3902,
        "Status": "confirmed",
        "Date": "2022-01-04T00:00:00Z"
    },
    {
        "Country": "United States of America",
        "CountryCode": "US",
        "Province": "Arkansas",
        "City": "Conway",
        "CityCode": "5029",
        "Lat": "35.26",
        "Lon": "-92.71",
        "Cases": 3585,
        "Status": "confirmed",
        "Date": "2022-01-04T00:00:00Z"
    },
    {
        "Country": "United States of America",
        "CountryCode": "US",
        "Province": "New Mexico",
        "City": "Santa Fe",
        "CityCode": "35049",
        "Lat": "35.51",
        "Lon": "-105.98",
        "Cases": 17709,
        "Status": "confirmed",
        "Date": "2022-01-04T00:00:00Z"
    },
    {
        "Country": "United States of America",
        "CountryCode": "US",
        "Province": "Texas",
        "City": "Archer",
        "CityCode": "48009",
        "Lat": "33.62",
        "Lon": "-98.69",
        "Cases": 1481,
        "Status": "confirmed",
        "Date": "2022-01-04T00:00:00Z"
    },
    {
        "Country": "United States of America",
        "CountryCode": "US",
        "Province": "South Carolina",
        "City": "Florence",
        "CityCode": "45041",
        "Lat": "34.02",
        "Lon": "-79.7",
        "Cases": 29356,
        "Status": "confirmed",
        "Date": "2022-01-04T00:00:00Z"
    },
    {
        "Country": "United States of America",
        "CountryCode": "US",
        "Province": "Missouri",
        "City": "Cedar",
        "CityCode": "29039",
        "Lat": "37.72",
        "Lon": "-93.85",
        "Cases": 2135,
        "Status": "confirmed",
        "Date": "2022-01-04T00:00:00Z"
    },
    {
        "Country": "United States of America",
        "CountryCode": "US",
        "Province": "Missouri",
        "City": "Barton",
        "CityCode": "29011",
        "Lat": "37.5",
        "Lon": "-94.35",
        "Cases": 2079,
        "Status": "confirmed",
        "Date": "2022-01-04T00:00:00Z"
    },
    {
        "Country": "United States of America",
        "CountryCode": "US",
        "Province": "North Carolina",
        "City": "Duplin",
        "CityCode": "37061",
        "Lat": "34.93",
        "Lon": "-77.93",
        "Cases": 10964,
        "Status": "confirmed",
        "Date": "2022-01-04T00:00:00Z"
    },
    {
        "Country": "United States of America",
        "CountryCode": "US",
        "Province": "Nebraska",
        "City": "Cheyenne",
        "CityCode": "31033",
        "Lat": "41.22",
        "Lon": "-102.99",
        "Cases": 1545,
        "Status": "confirmed",
        "Date": "2022-01-04T00:00:00Z"
    },
    {
        "Country": "United States of America",
        "CountryCode": "US",
        "Province": "Iowa",
        "City": "Lucas",
        "CityCode": "19117",
        "Lat": "41.03",
        "Lon": "-93.33",
        "Cases": 1365,
        "Status": "confirmed",
        "Date": "2022-01-04T00:00:00Z"
    },
    {
        "Country": "United States of America",
        "CountryCode": "US",
        "Province": "Virginia",
        "City": "Hampton",
        "CityCode": "51650",
        "Lat": "37.04",
        "Lon": "-76.36",
        "Cases": 18697,
        "Status": "confirmed",
        "Date": "2022-01-04T00:00:00Z"
    },
    {
        "Country": "United States of America",
        "CountryCode": "US",
        "Province": "Utah",
        "City": "Bear River",
        "CityCode": "",
        "Lat": "41.52",
        "Lon": "-113.08",
        "Cases": 36798,
        "Status": "confirmed",
        "Date": "2022-01-04T00:00:00Z"
    },
    {
        "Country": "United States of America",
        "CountryCode": "US",
        "Province": "Missouri",
        "City": "Crawford",
        "CityCode": "29055",
        "Lat": "37.98",
        "Lon": "-91.31",
        "Cases": 4215,
        "Status": "confirmed",
        "Date": "2022-01-04T00:00:00Z"
    },
    {
        "Country": "United States of America",
        "CountryCode": "US",
        "Province": "South Carolina",
        "City": "Union",
        "CityCode": "45087",
        "Lat": "34.69",
        "Lon": "-81.62",
        "Cases": 5271,
        "Status": "confirmed",
        "Date": "2022-01-04T00:00:00Z"
    },
    {
        "Country": "United States of America",
        "CountryCode": "US",
        "Province": "New Jersey",
        "City": "Union",
        "CityCode": "34039",
        "Lat": "40.66",
        "Lon": "-74.31",
        "Cases": 112647,
        "Status": "confirmed",
        "Date": "2022-01-04T00:00:00Z"
    },
    {
        "Country": "United States of America",
        "CountryCode": "US",
        "Province": "Maine",
        "City": "Waldo",
        "CityCode": "23027",
        "Lat": "44.49",
        "Lon": "-69.12",
        "Cases": 3658,
        "Status": "confirmed",
        "Date": "2022-01-04T00:00:00Z"
    },
    {
        "Country": "United States of America",
        "CountryCode": "US",
        "Province": "Kentucky",
        "City": "Letcher",
        "CityCode": "21133",
        "Lat": "37.12",
        "Lon": "-82.85",
        "Cases": 4624,
        "Status": "confirmed",
        "Date": "2022-01-04T00:00:00Z"
    },
    {
        "Country": "United States of America",
        "CountryCode": "US",
        "Province": "Georgia",
        "City": "Colquitt",
        "CityCode": "13071",
        "Lat": "31.19",
        "Lon": "-83.77",
        "Cases": 8107,
        "Status": "confirmed",
        "Date": "2022-01-04T00:00:00Z"
    },
    {
        "Country": "United States of America",
        "CountryCode": "US",
        "Province": "Nebraska",
        "City": "Thurston",
        "CityCode": "31173",
        "Lat": "42.16",
        "Lon": "-96.54",
        "Cases": 1174,
        "Status": "confirmed",
        "Date": "2022-01-04T00:00:00Z"
    },
    {
        "Country": "United States of America",
        "CountryCode": "US",
        "Province": "Pennsylvania",
        "City": "Butler",
        "CityCode": "42019",
        "Lat": "40.91",
        "Lon": "-79.91",
        "Cases": 33988,
        "Status": "confirmed",
        "Date": "2022-01-04T00:00:00Z"
    },
    {
        "Country": "United States of America",
        "CountryCode": "US",
        "Province": "Missouri",
        "City": "DeKalb",
        "CityCode": "29063",
        "Lat": "39.89",
        "Lon": "-94.4",
        "Cases": 1767,
        "Status": "confirmed",
        "Date": "2022-01-04T00:00:00Z"
    },
    {
        "Country": "United States of America",
        "CountryCode": "US",
        "Province": "Colorado",
        "City": "Ouray",
        "CityCode": "8091",
        "Lat": "38.15",
        "Lon": "-107.77",
        "Cases": 648,
        "Status": "confirmed",
        "Date": "2022-01-04T00:00:00Z"
    },
    {
        "Country": "United States of America",
        "CountryCode": "US",
        "Province": "Connecticut",
        "City": "Unassigned",
        "CityCode": "90009",
        "Lat": "0",
        "Lon": "0",
        "Cases": 2026,
        "Status": "confirmed",
        "Date": "2022-01-04T00:00:00Z"
    },
    {
        "Country": "United States of America",
        "CountryCode": "US",
        "Province": "Texas",
        "City": "Zapata",
        "CityCode": "48505",
        "Lat": "27",
        "Lon": "-99.17",
        "Cases": 2316,
        "Status": "confirmed",
        "Date": "2022-01-04T00:00:00Z"
    },
    {
        "Country": "United States of America",
        "CountryCode": "US",
        "Province": "Michigan",
        "City": "Alger",
        "CityCode": "26003",
        "Lat": "46.41",
        "Lon": "-86.6",
        "Cases": 1133,
        "Status": "confirmed",
        "Date": "2022-01-04T00:00:00Z"
    },
    {
        "Country": "United States of America",
        "CountryCode": "US",
        "Province": "Georgia",
        "City": "Rabun",
        "CityCode": "13241",
        "Lat": "34.88",
        "Lon": "-83.4",
        "Cases": 2807,
        "Status": "confirmed",
        "Date": "2022-01-04T00:00:00Z"
    },
    {
        "Country": "United States of America",
        "CountryCode": "US",
        "Province": "California",
        "City": "Monterey",
        "CityCode": "6053",
        "Lat": "36.22",
        "Lon": "-121.24",
        "Cases": 55957,
        "Status": "confirmed",
        "Date": "2022-01-04T00:00:00Z"
    },
    {
        "Country": "United States of America",
        "CountryCode": "US",
        "Province": "Rhode Island",
        "City": "Washington",
        "CityCode": "44009",
        "Lat": "41.46",
        "Lon": "-71.61",
        "Cases": 18649,
        "Status": "confirmed",
        "Date": "2022-01-04T00:00:00Z"
    },
    {
        "Country": "United States of America",
        "CountryCode": "US",
        "Province": "Kansas",
        "City": "Morris",
        "CityCode": "20127",
        "Lat": "38.69",
        "Lon": "-96.65",
        "Cases": 1006,
        "Status": "confirmed",
        "Date": "2022-01-04T00:00:00Z"
    },
    {
        "Country": "United States of America",
        "CountryCode": "US",
        "Province": "Georgia",
        "City": "Catoosa",
        "CityCode": "13047",
        "Lat": "34.9",
        "Lon": "-85.14",
        "Cases": 10613,
        "Status": "confirmed",
        "Date": "2022-01-04T00:00:00Z"
    },
    {
        "Country": "United States of America",
        "CountryCode": "US",
        "Province": "Tennessee",
        "City": "Morgan",
        "CityCode": "47129",
        "Lat": "36.13",
        "Lon": "-84.65",
        "Cases": 4177,
        "Status": "confirmed",
        "Date": "2022-01-04T00:00:00Z"
    },
    {
        "Country": "United States of America",
        "CountryCode": "US",
        "Province": "New York",
        "City": "Yates",
        "CityCode": "36123",
        "Lat": "42.64",
        "Lon": "-77.1",
        "Cases": 2451,
        "Status": "confirmed",
        "Date": "2022-01-04T00:00:00Z"
    },
    {
        "Country": "United States of America",
        "CountryCode": "US",
        "Province": "Idaho",
        "City": "Gooding",
        "CityCode": "16047",
        "Lat": "42.97",
        "Lon": "-114.81",
        "Cases": 2437,
        "Status": "confirmed",
        "Date": "2022-01-04T00:00:00Z"
    },
    {
        "Country": "United States of America",
        "CountryCode": "US",
        "Province": "Missouri",
        "City": "Washington",
        "CityCode": "29221",
        "Lat": "37.96",
        "Lon": "-90.88",
        "Cases": 4551,
        "Status": "confirmed",
        "Date": "2022-01-04T00:00:00Z"
    },
    {
        "Country": "United States of America",
        "CountryCode": "US",
        "Province": "Arizona",
        "City": "Mohave",
        "CityCode": "4015",
        "Lat": "35.7",
        "Lon": "-113.76",
        "Cases": 39716,
        "Status": "confirmed",
        "Date": "2022-01-04T00:00:00Z"
    },
    {
        "Country": "United States of America",
        "CountryCode": "US",
        "Province": "California",
        "City": "Mono",
        "CityCode": "6051",
        "Lat": "37.94",
        "Lon": "-118.89",
        "Cases": 2193,
        "Status": "confirmed",
        "Date": "2022-01-04T00:00:00Z"
    },
    {
        "Country": "United States of America",
        "CountryCode": "US",
        "Province": "New Jersey",
        "City": "Mercer",
        "CityCode": "34021",
        "Lat": "40.28",
        "Lon": "-74.7",
        "Cases": 54761,
        "Status": "confirmed",
        "Date": "2022-01-04T00:00:00Z"
    },
    {
        "Country": "United States of America",
        "CountryCode": "US",
        "Province": "Texas",
        "City": "Newton",
        "CityCode": "48351",
        "Lat": "30.79",
        "Lon": "-93.74",
        "Cases": 1021,
        "Status": "confirmed",
        "Date": "2022-01-04T00:00:00Z"
    },
    {
        "Country": "United States of America",
        "CountryCode": "US",
        "Province": "Iowa",
        "City": "Louisa",
        "CityCode": "19115",
        "Lat": "41.22",
        "Lon": "-91.26",
        "Cases": 1983,
        "Status": "confirmed",
        "Date": "2022-01-04T00:00:00Z"
    },
    {
        "Country": "United States of America",
        "CountryCode": "US",
        "Province": "Texas",
        "City": "Jim Hogg",
        "CityCode": "48247",
        "Lat": "27.04",
        "Lon": "-98.7",
        "Cases": 962,
        "Status": "confirmed",
        "Date": "2022-01-04T00:00:00Z"
    },
    {
        "Country": "United States of America",
        "CountryCode": "US",
        "Province": "Texas",
        "City": "Zavala",
        "CityCode": "48507",
        "Lat": "28.87",
        "Lon": "-99.76",
        "Cases": 2744,
        "Status": "confirmed",
        "Date": "2022-01-04T00:00:00Z"
    },
    {
        "Country": "United States of America",
        "CountryCode": "US",
        "Province": "Arkansas",
        "City": "Stone",
        "CityCode": "5137",
        "Lat": "35.86",
        "Lon": "-92.16",
        "Cases": 2080,
        "Status": "confirmed",
        "Date": "2022-01-04T00:00:00Z"
    },
    {
        "Country": "United States of America",
        "CountryCode": "US",
        "Province": "Oklahoma",
        "City": "Bryan",
        "CityCode": "40013",
        "Lat": "33.96",
        "Lon": "-96.26",
        "Cases": 9385,
        "Status": "confirmed",
        "Date": "2022-01-04T00:00:00Z"
    },
    {
        "Country": "United States of America",
        "CountryCode": "US",
        "Province": "Louisiana",
        "City": "Vermilion",
        "CityCode": "22113",
        "Lat": "29.84",
        "Lon": "-92.3",
        "Cases": 11173,
        "Status": "confirmed",
        "Date": "2022-01-04T00:00:00Z"
    },
    {
        "Country": "United States of America",
        "CountryCode": "US",
        "Province": "Vermont",
        "City": "Franklin",
        "CityCode": "50011",
        "Lat": "44.86",
        "Lon": "-72.91",
        "Cases": 5657,
        "Status": "confirmed",
        "Date": "2022-01-04T00:00:00Z"
    },
    {
        "Country": "United States of America",
        "CountryCode": "US",
        "Province": "Illinois",
        "City": "Grundy",
        "CityCode": "17063",
        "Lat": "41.29",
        "Lon": "-88.42",
        "Cases": 10184,
        "Status": "confirmed",
        "Date": "2022-01-04T00:00:00Z"
    },
    {
        "Country": "United States of America",
        "CountryCode": "US",
        "Province": "Connecticut",
        "City": "New London",
        "CityCode": "9011",
        "Lat": "41.49",
        "Lon": "-72.1",
        "Cases": 37997,
        "Status": "confirmed",
        "Date": "2022-01-04T00:00:00Z"
    },
    {
        "Country": "United States of America",
        "CountryCode": "US",
        "Province": "South Dakota",
        "City": "Miner",
        "CityCode": "46097",
        "Lat": "44.02",
        "Lon": "-97.61",
        "Cases": 389,
        "Status": "confirmed",
        "Date": "2022-01-04T00:00:00Z"
    },
    {
        "Country": "United States of America",
        "CountryCode": "US",
        "Province": "Louisiana",
        "City": "Catahoula",
        "CityCode": "22025",
        "Lat": "31.67",
        "Lon": "-91.85",
        "Cases": 1922,
        "Status": "confirmed",
        "Date": "2022-01-04T00:00:00Z"
    },
    {
        "Country": "United States of America",
        "CountryCode": "US",
        "Province": "Indiana",
        "City": "Fayette",
        "CityCode": "18041",
        "Lat": "39.64",
        "Lon": "-85.18",
        "Cases": 5236,
        "Status": "confirmed",
        "Date": "2022-01-04T00:00:00Z"
    },
    {
        "Country": "United States of America",
        "CountryCode": "US",
        "Province": "Montana",
        "City": "Powell",
        "CityCode": "30077",
        "Lat": "46.86",
        "Lon": "-112.94",
        "Cases": 1477,
        "Status": "confirmed",
        "Date": "2022-01-04T00:00:00Z"
    },
    {
        "Country": "United States of America",
        "CountryCode": "US",
        "Province": "Indiana",
        "City": "Morgan",
        "CityCode": "18109",
        "Lat": "39.48",
        "Lon": "-86.45",
        "Cases": 11975,
        "Status": "confirmed",
        "Date": "2022-01-04T00:00:00Z"
    },
    {
        "Country": "United States of America",
        "CountryCode": "US",
        "Province": "Oklahoma",
        "City": "Alfalfa",
        "CityCode": "40003",
        "Lat": "36.73",
        "Lon": "-98.32",
        "Cases": 1425,
        "Status": "confirmed",
        "Date": "2022-01-04T00:00:00Z"
    },
    {
        "Country": "United States of America",
        "CountryCode": "US",
        "Province": "Kentucky",
        "City": "Christian",
        "CityCode": "21047",
        "Lat": "36.89",
        "Lon": "-87.49",
        "Cases": 11378,
        "Status": "confirmed",
        "Date": "2022-01-04T00:00:00Z"
    },
    {
        "Country": "United States of America",
        "CountryCode": "US",
        "Province": "Ohio",
        "City": "Allen",
        "CityCode": "39003",
        "Lat": "40.77",
        "Lon": "-84.11",
        "Cases": 21386,
        "Status": "confirmed",
        "Date": "2022-01-04T00:00:00Z"
    },
    {
        "Country": "United States of America",
        "CountryCode": "US",
        "Province": "Missouri",
        "City": "Johnson",
        "CityCode": "29101",
        "Lat": "38.75",
        "Lon": "-93.81",
        "Cases": 8864,
        "Status": "confirmed",
        "Date": "2022-01-04T00:00:00Z"
    },
    {
        "Country": "United States of America",
        "CountryCode": "US",
        "Province": "Texas",
        "City": "Kendall",
        "CityCode": "48259",
        "Lat": "29.94",
        "Lon": "-98.71",
        "Cases": 5598,
        "Status": "confirmed",
        "Date": "2022-01-04T00:00:00Z"
    },
    {
        "Country": "United States of America",
        "CountryCode": "US",
        "Province": "Illinois",
        "City": "Morgan",
        "CityCode": "17137",
        "Lat": "39.72",
        "Lon": "-90.2",
        "Cases": 6234,
        "Status": "confirmed",
        "Date": "2022-01-04T00:00:00Z"
    },
    {
        "Country": "United States of America",
        "CountryCode": "US",
        "Province": "Pennsylvania",
        "City": "Somerset",
        "CityCode": "42111",
        "Lat": "39.97",
        "Lon": "-79.03",
        "Cases": 14308,
        "Status": "confirmed",
        "Date": "2022-01-04T00:00:00Z"
    },
    {
        "Country": "United States of America",
        "CountryCode": "US",
        "Province": "North Carolina",
        "City": "Buncombe",
        "CityCode": "37021",
        "Lat": "35.61",
        "Lon": "-82.53",
        "Cases": 34145,
        "Status": "confirmed",
        "Date": "2022-01-04T00:00:00Z"
    },
    {
        "Country": "United States of America",
        "CountryCode": "US",
        "Province": "Kentucky",
        "City": "Boone",
        "CityCode": "21015",
        "Lat": "38.97",
        "Lon": "-84.73",
        "Cases": 25446,
        "Status": "confirmed",
        "Date": "2022-01-04T00:00:00Z"
    },
    {
        "Country": "United States of America",
        "CountryCode": "US",
        "Province": "Georgia",
        "City": "Richmond",
        "CityCode": "13245",
        "Lat": "33.36",
        "Lon": "-82.07",
        "Cases": 39156,
        "Status": "confirmed",
        "Date": "2022-01-04T00:00:00Z"
    },
    {
        "Country": "United States of America",
        "CountryCode": "US",
        "Province": "Texas",
        "City": "Wise",
        "CityCode": "48497",
        "Lat": "33.22",
        "Lon": "-97.65",
        "Cases": 12399,
        "Status": "confirmed",
        "Date": "2022-01-04T00:00:00Z"
    },
    {
        "Country": "United States of America",
        "CountryCode": "US",
        "Province": "Washington",
        "City": "King",
        "CityCode": "53033",
        "Lat": "47.49",
        "Lon": "-121.83",
        "Cases": 214271,
        "Status": "confirmed",
        "Date": "2022-01-04T00:00:00Z"
    },
    {
        "Country": "United States of America",
        "CountryCode": "US",
        "Province": "California",
        "City": "Butte",
        "CityCode": "6007",
        "Lat": "39.67",
        "Lon": "-121.6",
        "Cases": 27062,
        "Status": "confirmed",
        "Date": "2022-01-04T00:00:00Z"
    },
    {
        "Country": "United States of America",
        "CountryCode": "US",
        "Province": "Texas",
        "City": "Young",
        "CityCode": "48503",
        "Lat": "33.18",
        "Lon": "-98.69",
        "Cases": 3151,
        "Status": "confirmed",
        "Date": "2022-01-04T00:00:00Z"
    },
    {
        "Country": "United States of America",
        "CountryCode": "US",
        "Province": "Wisconsin",
        "City": "Barron",
        "CityCode": "55005",
        "Lat": "45.42",
        "Lon": "-91.85",
        "Cases": 10714,
        "Status": "confirmed",
        "Date": "2022-01-04T00:00:00Z"
    },
    {
        "Country": "United States of America",
        "CountryCode": "US",
        "Province": "West Virginia",
        "City": "Webster",
        "CityCode": "54101",
        "Lat": "38.49",
        "Lon": "-80.42",
        "Cases": 1550,
        "Status": "confirmed",
        "Date": "2022-01-04T00:00:00Z"
    },
    {
        "Country": "United States of America",
        "CountryCode": "US",
        "Province": "Georgia",
        "City": "Evans",
        "CityCode": "13109",
        "Lat": "32.15",
        "Lon": "-81.89",
        "Cases": 1742,
        "Status": "confirmed",
        "Date": "2022-01-04T00:00:00Z"
    },
    {
        "Country": "United States of America",
        "CountryCode": "US",
        "Province": "New York",
        "City": "Bronx",
        "CityCode": "36005",
        "Lat": "40.85",
        "Lon": "-73.86",
        "Cases": 302120,
        "Status": "confirmed",
        "Date": "2022-01-04T00:00:00Z"
    },
    {
        "Country": "United States of America",
        "CountryCode": "US",
        "Province": "Tennessee",
        "City": "Monroe",
        "CityCode": "47123",
        "Lat": "35.45",
        "Lon": "-84.25",
        "Cases": 10467,
        "Status": "confirmed",
        "Date": "2022-01-04T00:00:00Z"
    },
    {
        "Country": "United States of America",
        "CountryCode": "US",
        "Province": "Kansas",
        "City": "Wilson",
        "CityCode": "20205",
        "Lat": "37.56",
        "Lon": "-95.74",
        "Cases": 1936,
        "Status": "confirmed",
        "Date": "2022-01-04T00:00:00Z"
    },
    {
        "Country": "United States of America",
        "CountryCode": "US",
        "Province": "Tennessee",
        "City": "Franklin",
        "CityCode": "47051",
        "Lat": "35.16",
        "Lon": "-86.09",
        "Cases": 8774,
        "Status": "confirmed",
        "Date": "2022-01-04T00:00:00Z"
    },
    {
        "Country": "United States of America",
        "CountryCode": "US",
        "Province": "Arkansas",
        "City": "Greene",
        "CityCode": "5055",
        "Lat": "36.12",
        "Lon": "-90.56",
        "Cases": 11438,
        "Status": "confirmed",
        "Date": "2022-01-04T00:00:00Z"
    },
    {
        "Country": "United States of America",
        "CountryCode": "US",
        "Province": "Iowa",
        "City": "Floyd",
        "CityCode": "19067",
        "Lat": "43.06",
        "Lon": "-92.79",
        "Cases": 2783,
        "Status": "confirmed",
        "Date": "2022-01-04T00:00:00Z"
    },
    {
        "Country": "United States of America",
        "CountryCode": "US",
        "Province": "New Jersey",
        "City": "Camden",
        "CityCode": "34007",
        "Lat": "39.8",
        "Lon": "-74.96",
        "Cases": 92531,
        "Status": "confirmed",
        "Date": "2022-01-04T00:00:00Z"
    },
    {
        "Country": "United States of America",
        "CountryCode": "US",
        "Province": "New York",
        "City": "Delaware",
        "CityCode": "36025",
        "Lat": "42.2",
        "Lon": "-74.97",
        "Cases": 5681,
        "Status": "confirmed",
        "Date": "2022-01-04T00:00:00Z"
    },
    {
        "Country": "United States of America",
        "CountryCode": "US",
        "Province": "Kansas",
        "City": "Woodson",
        "CityCode": "20207",
        "Lat": "37.89",
        "Lon": "-95.74",
        "Cases": 591,
        "Status": "confirmed",
        "Date": "2022-01-04T00:00:00Z"
    },
    {
        "Country": "United States of America",
        "CountryCode": "US",
        "Province": "Michigan",
        "City": "Branch",
        "CityCode": "26023",
        "Lat": "41.92",
        "Lon": "-85.06",
        "Cases": 8666,
        "Status": "confirmed",
        "Date": "2022-01-04T00:00:00Z"
    },
    {
        "Country": "United States of America",
        "CountryCode": "US",
        "Province": "Puerto Rico",
        "City": "Camuy",
        "CityCode": "72027",
        "Lat": "18.42",
        "Lon": "-66.86",
        "Cases": 2483,
        "Status": "confirmed",
        "Date": "2022-01-04T00:00:00Z"
    },
    {
        "Country": "United States of America",
        "CountryCode": "US",
        "Province": "Indiana",
        "City": "Knox",
        "CityCode": "18083",
        "Lat": "38.69",
        "Lon": "-87.42",
        "Cases": 7815,
        "Status": "confirmed",
        "Date": "2022-01-04T00:00:00Z"
    },
    {
        "Country": "United States of America",
        "CountryCode": "US",
        "Province": "Ohio",
        "City": "Scioto",
        "CityCode": "39145",
        "Lat": "38.8",
        "Lon": "-82.99",
        "Cases": 14226,
        "Status": "confirmed",
        "Date": "2022-01-04T00:00:00Z"
    },
    {
        "Country": "United States of America",
        "CountryCode": "US",
        "Province": "Wisconsin",
        "City": "Washington",
        "CityCode": "55131",
        "Lat": "43.37",
        "Lon": "-88.23",
        "Cases": 29306,
        "Status": "confirmed",
        "Date": "2022-01-04T00:00:00Z"
    },
    {
        "Country": "United States of America",
        "CountryCode": "US",
        "Province": "Georgia",
        "City": "Gordon",
        "CityCode": "13129",
        "Lat": "34.5",
        "Lon": "-84.87",
        "Cases": 12430,
        "Status": "confirmed",
        "Date": "2022-01-04T00:00:00Z"
    },
    {
        "Country": "United States of America",
        "CountryCode": "US",
        "Province": "Iowa",
        "City": "Linn",
        "CityCode": "19113",
        "Lat": "42.08",
        "Lon": "-91.6",
        "Cases": 36894,
        "Status": "confirmed",
        "Date": "2022-01-04T00:00:00Z"
    },
    {
        "Country": "United States of America",
        "CountryCode": "US",
        "Province": "Missouri",
        "City": "Chariton",
        "CityCode": "29041",
        "Lat": "39.51",
        "Lon": "-92.96",
        "Cases": 1297,
        "Status": "confirmed",
        "Date": "2022-01-04T00:00:00Z"
    },
    {
        "Country": "United States of America",
        "CountryCode": "US",
        "Province": "Indiana",
        "City": "Rush",
        "CityCode": "18139",
        "Lat": "39.62",
        "Lon": "-85.47",
        "Cases": 3549,
        "Status": "confirmed",
        "Date": "2022-01-04T00:00:00Z"
    },
    {
        "Country": "United States of America",
        "CountryCode": "US",
        "Province": "Kansas",
        "City": "Chase",
        "CityCode": "20017",
        "Lat": "38.3",
        "Lon": "-96.6",
        "Cases": 473,
        "Status": "confirmed",
        "Date": "2022-01-04T00:00:00Z"
    },
    {
        "Country": "United States of America",
        "CountryCode": "US",
        "Province": "Kansas",
        "City": "Sheridan",
        "CityCode": "20179",
        "Lat": "39.35",
        "Lon": "-100.44",
        "Cases": 635,
        "Status": "confirmed",
        "Date": "2022-01-04T00:00:00Z"
    },
    {
        "Country": "United States of America",
        "CountryCode": "US",
        "Province": "Virginia",
        "City": "Richmond",
        "CityCode": "51159",
        "Lat": "37.94",
        "Lon": "-76.73",
        "Cases": 1887,
        "Status": "confirmed",
        "Date": "2022-01-04T00:00:00Z"
    },
    {
        "Country": "United States of America",
        "CountryCode": "US",
        "Province": "Missouri",
        "City": "Knox",
        "CityCode": "29103",
        "Lat": "40.13",
        "Lon": "-92.15",
        "Cases": 747,
        "Status": "confirmed",
        "Date": "2022-01-04T00:00:00Z"
    },
    {
        "Country": "United States of America",
        "CountryCode": "US",
        "Province": "Nebraska",
        "City": "Box Butte",
        "CityCode": "31013",
        "Lat": "42.22",
        "Lon": "-103.09",
        "Cases": 1740,
        "Status": "confirmed",
        "Date": "2022-01-04T00:00:00Z"
    },
    {
        "Country": "United States of America",
        "CountryCode": "US",
        "Province": "Indiana",
        "City": "Posey",
        "CityCode": "18129",
        "Lat": "38.02",
        "Lon": "-87.86",
        "Cases": 4568,
        "Status": "confirmed",
        "Date": "2022-01-04T00:00:00Z"
    },
    {
        "Country": "United States of America",
        "CountryCode": "US",
        "Province": "Wisconsin",
        "City": "Oconto",
        "CityCode": "55083",
        "Lat": "45.03",
        "Lon": "-88.27",
        "Cases": 8959,
        "Status": "confirmed",
        "Date": "2022-01-04T00:00:00Z"
    },
    {
        "Country": "United States of America",
        "CountryCode": "US",
        "Province": "Indiana",
        "City": "Washington",
        "CityCode": "18175",
        "Lat": "38.6",
        "Lon": "-86.1",
        "Cases": 4318,
        "Status": "confirmed",
        "Date": "2022-01-04T00:00:00Z"
    },
    {
        "Country": "United States of America",
        "CountryCode": "US",
        "Province": "South Carolina",
        "City": "Hampton",
        "CityCode": "45049",
        "Lat": "32.77",
        "Lon": "-81.14",
        "Cases": 3378,
        "Status": "confirmed",
        "Date": "2022-01-04T00:00:00Z"
    },
    {
        "Country": "United States of America",
        "CountryCode": "US",
        "Province": "South Dakota",
        "City": "McCook",
        "CityCode": "46087",
        "Lat": "43.67",
        "Lon": "-97.37",
        "Cases": 1123,
        "Status": "confirmed",
        "Date": "2022-01-04T00:00:00Z"
    },
    {
        "Country": "United States of America",
        "CountryCode": "US",
        "Province": "Texas",
        "City": "Bee",
        "CityCode": "48025",
        "Lat": "28.42",
        "Lon": "-97.74",
        "Cases": 5612,
        "Status": "confirmed",
        "Date": "2022-01-04T00:00:00Z"
    },
    {
        "Country": "United States of America",
        "CountryCode": "US",
        "Province": "Missouri",
        "City": "Texas",
        "CityCode": "29215",
        "Lat": "37.32",
        "Lon": "-91.97",
        "Cases": 3599,
        "Status": "confirmed",
        "Date": "2022-01-04T00:00:00Z"
    },
    {
        "Country": "United States of America",
        "CountryCode": "US",
        "Province": "Virginia",
        "City": "Henry",
        "CityCode": "51089",
        "Lat": "36.69",
        "Lon": "-79.88",
        "Cases": 7921,
        "Status": "confirmed",
        "Date": "2022-01-04T00:00:00Z"
    },
    {
        "Country": "United States of America",
        "CountryCode": "US",
        "Province": "Virginia",
        "City": "Westmoreland",
        "CityCode": "51193",
        "Lat": "38.11",
        "Lon": "-76.8",
        "Cases": 2345,
        "Status": "confirmed",
        "Date": "2022-01-04T00:00:00Z"
    },
    {
        "Country": "United States of America",
        "CountryCode": "US",
        "Province": "Texas",
        "City": "Hamilton",
        "CityCode": "48193",
        "Lat": "31.7",
        "Lon": "-98.11",
        "Cases": 1461,
        "Status": "confirmed",
        "Date": "2022-01-04T00:00:00Z"
    },
    {
        "Country": "United States of America",
        "CountryCode": "US",
        "Province": "Kansas",
        "City": "Geary",
        "CityCode": "20061",
        "Lat": "39",
        "Lon": "-96.76",
        "Cases": 5644,
        "Status": "confirmed",
        "Date": "2022-01-04T00:00:00Z"
    },
    {
        "Country": "United States of America",
        "CountryCode": "US",
        "Province": "Virginia",
        "City": "Wise",
        "CityCode": "51195",
        "Lat": "36.97",
        "Lon": "-82.62",
        "Cases": 6720,
        "Status": "confirmed",
        "Date": "2022-01-04T00:00:00Z"
    },
    {
        "Country": "United States of America",
        "CountryCode": "US",
        "Province": "Missouri",
        "City": "Lincoln",
        "CityCode": "29113",
        "Lat": "39.05",
        "Lon": "-90.96",
        "Cases": 11704,
        "Status": "confirmed",
        "Date": "2022-01-04T00:00:00Z"
    },
    {
        "Country": "United States of America",
        "CountryCode": "US",
        "Province": "Puerto Rico",
        "City": "Isabela",
        "CityCode": "72071",
        "Lat": "18.45",
        "Lon": "-67.01",
        "Cases": 3517,
        "Status": "confirmed",
        "Date": "2022-01-04T00:00:00Z"
    },
    {
        "Country": "United States of America",
        "CountryCode": "US",
        "Province": "South Dakota",
        "City": "Harding",
        "CityCode": "46063",
        "Lat": "45.58",
        "Lon": "-103.5",
        "Cases": 170,
        "Status": "confirmed",
        "Date": "2022-01-04T00:00:00Z"
    },
    {
        "Country": "United States of America",
        "CountryCode": "US",
        "Province": "Minnesota",
        "City": "Beltrami",
        "CityCode": "27007",
        "Lat": "47.97",
        "Lon": "-94.94",
        "Cases": 8908,
        "Status": "confirmed",
        "Date": "2022-01-04T00:00:00Z"
    },
    {
        "Country": "United States of America",
        "CountryCode": "US",
        "Province": "Alabama",
        "City": "Crenshaw",
        "CityCode": "1041",
        "Lat": "31.73",
        "Lon": "-86.32",
        "Cases": 2823,
        "Status": "confirmed",
        "Date": "2022-01-04T00:00:00Z"
    },
    {
        "Country": "United States of America",
        "CountryCode": "US",
        "Province": "California",
        "City": "Tulare",
        "CityCode": "6107",
        "Lat": "36.22",
        "Lon": "-118.8",
        "Cases": 90409,
        "Status": "confirmed",
        "Date": "2022-01-04T00:00:00Z"
    },
    {
        "Country": "United States of America",
        "CountryCode": "US",
        "Province": "Georgia",
        "City": "Fulton",
        "CityCode": "13121",
        "Lat": "33.79",
        "Lon": "-84.46",
        "Cases": 168602,
        "Status": "confirmed",
        "Date": "2022-01-04T00:00:00Z"
    },
    {
        "Country": "United States of America",
        "CountryCode": "US",
        "Province": "Missouri",
        "City": "Jackson",
        "CityCode": "29095",
        "Lat": "39.01",
        "Lon": "-94.35",
        "Cases": 70048,
        "Status": "confirmed",
        "Date": "2022-01-04T00:00:00Z"
    },
    {
        "Country": "United States of America",
        "CountryCode": "US",
        "Province": "Mississippi",
        "City": "Oktibbeha",
        "CityCode": "28105",
        "Lat": "33.42",
        "Lon": "-88.88",
        "Cases": 7769,
        "Status": "confirmed",
        "Date": "2022-01-04T00:00:00Z"
    },
    {
        "Country": "United States of America",
        "CountryCode": "US",
        "Province": "Mississippi",
        "City": "Noxubee",
        "CityCode": "28103",
        "Lat": "33.11",
        "Lon": "-88.57",
        "Cases": 1989,
        "Status": "confirmed",
        "Date": "2022-01-04T00:00:00Z"
    },
    {
        "Country": "United States of America",
        "CountryCode": "US",
        "Province": "Georgia",
        "City": "Newton",
        "CityCode": "13217",
        "Lat": "33.56",
        "Lon": "-83.85",
        "Cases": 19935,
        "Status": "confirmed",
        "Date": "2022-01-04T00:00:00Z"
    },
    {
        "Country": "United States of America",
        "CountryCode": "US",
        "Province": "Iowa",
        "City": "Mahaska",
        "CityCode": "19123",
        "Lat": "41.34",
        "Lon": "-92.64",
        "Cases": 4014,
        "Status": "confirmed",
        "Date": "2022-01-04T00:00:00Z"
    },
    {
        "Country": "United States of America",
        "CountryCode": "US",
        "Province": "Kansas",
        "City": "Gove",
        "CityCode": "20063",
        "Lat": "38.92",
        "Lon": "-100.48",
        "Cases": 635,
        "Status": "confirmed",
        "Date": "2022-01-04T00:00:00Z"
    },
    {
        "Country": "United States of America",
        "CountryCode": "US",
        "Province": "Mississippi",
        "City": "Benton",
        "CityCode": "28009",
        "Lat": "34.82",
        "Lon": "-89.19",
        "Cases": 1691,
        "Status": "confirmed",
        "Date": "2022-01-04T00:00:00Z"
    },
    {
        "Country": "United States of America",
        "CountryCode": "US",
        "Province": "Ohio",
        "City": "Mercer",
        "CityCode": "39107",
        "Lat": "40.54",
        "Lon": "-84.63",
        "Cases": 7581,
        "Status": "confirmed",
        "Date": "2022-01-04T00:00:00Z"
    },
    {
        "Country": "United States of America",
        "CountryCode": "US",
        "Province": "Idaho",
        "City": "Jerome",
        "CityCode": "16053",
        "Lat": "42.69",
        "Lon": "-114.27",
        "Cases": 4505,
        "Status": "confirmed",
        "Date": "2022-01-04T00:00:00Z"
    },
    {
        "Country": "United States of America",
        "CountryCode": "US",
        "Province": "Maryland",
        "City": "Wicomico",
        "CityCode": "24045",
        "Lat": "38.37",
        "Lon": "-75.63",
        "Cases": 14143,
        "Status": "confirmed",
        "Date": "2022-01-04T00:00:00Z"
    },
    {
        "Country": "United States of America",
        "CountryCode": "US",
        "Province": "Wisconsin",
        "City": "Dunn",
        "CityCode": "55033",
        "Lat": "44.95",
        "Lon": "-91.9",
        "Cases": 9725,
        "Status": "confirmed",
        "Date": "2022-01-04T00:00:00Z"
    },
    {
        "Country": "United States of America",
        "CountryCode": "US",
        "Province": "Illinois",
        "City": "Whiteside",
        "CityCode": "17195",
        "Lat": "41.76",
        "Lon": "-89.92",
        "Cases": 10781,
        "Status": "confirmed",
        "Date": "2022-01-04T00:00:00Z"
    },
    {
        "Country": "United States of America",
        "CountryCode": "US",
        "Province": "West Virginia",
        "City": "Gilmer",
        "CityCode": "54021",
        "Lat": "38.93",
        "Lon": "-80.86",
        "Cases": 1613,
        "Status": "confirmed",
        "Date": "2022-01-04T00:00:00Z"
    },
    {
        "Country": "United States of America",
        "CountryCode": "US",
        "Province": "Ohio",
        "City": "Ashland",
        "CityCode": "39005",
        "Lat": "40.85",
        "Lon": "-82.27",
        "Cases": 9560,
        "Status": "confirmed",
        "Date": "2022-01-04T00:00:00Z"
    },
    {
        "Country": "United States of America",
        "CountryCode": "US",
        "Province": "North Dakota",
        "City": "Sioux",
        "CityCode": "38085",
        "Lat": "46.11",
        "Lon": "-101.04",
        "Cases": 1001,
        "Status": "confirmed",
        "Date": "2022-01-04T00:00:00Z"
    },
    {
        "Country": "United States of America",
        "CountryCode": "US",
        "Province": "Missouri",
        "City": "Stone",
        "CityCode": "29209",
        "Lat": "36.75",
        "Lon": "-93.45",
        "Cases": 4484,
        "Status": "confirmed",
        "Date": "2022-01-04T00:00:00Z"
    },
    {
        "Country": "United States of America",
        "CountryCode": "US",
        "Province": "Missouri",
        "City": "Reynolds",
        "CityCode": "29179",
        "Lat": "37.36",
        "Lon": "-90.97",
        "Cases": 860,
        "Status": "confirmed",
        "Date": "2022-01-04T00:00:00Z"
    },
    {
        "Country": "United States of America",
        "CountryCode": "US",
        "Province": "Texas",
        "City": "Hansford",
        "CityCode": "48195",
        "Lat": "36.28",
        "Lon": "-101.35",
        "Cases": 1284,
        "Status": "confirmed",
        "Date": "2022-01-04T00:00:00Z"
    },
    {
        "Country": "United States of America",
        "CountryCode": "US",
        "Province": "Illinois",
        "City": "Will",
        "CityCode": "17197",
        "Lat": "41.45",
        "Lon": "-87.98",
        "Cases": 125375,
        "Status": "confirmed",
        "Date": "2022-01-04T00:00:00Z"
    },
    {
        "Country": "United States of America",
        "CountryCode": "US",
        "Province": "Texas",
        "City": "Gonzales",
        "CityCode": "48177",
        "Lat": "29.46",
        "Lon": "-97.49",
        "Cases": 3699,
        "Status": "confirmed",
        "Date": "2022-01-04T00:00:00Z"
    },
    {
        "Country": "United States of America",
        "CountryCode": "US",
        "Province": "Tennessee",
        "City": "McMinn",
        "CityCode": "47107",
        "Lat": "35.43",
        "Lon": "-84.62",
        "Cases": 11345,
        "Status": "confirmed",
        "Date": "2022-01-04T00:00:00Z"
    },
    {
        "Country": "United States of America",
        "CountryCode": "US",
        "Province": "Nebraska",
        "City": "Loup",
        "CityCode": "31115",
        "Lat": "41.91",
        "Lon": "-99.45",
        "Cases": 73,
        "Status": "confirmed",
        "Date": "2022-01-04T00:00:00Z"
    },
    {
        "Country": "United States of America",
        "CountryCode": "US",
        "Province": "Idaho",
        "City": "Canyon",
        "CityCode": "16027",
        "Lat": "43.62",
        "Lon": "-116.71",
        "Cases": 45570,
        "Status": "confirmed",
        "Date": "2022-01-04T00:00:00Z"
    },
    {
        "Country": "United States of America",
        "CountryCode": "US",
        "Province": "Maine",
        "City": "Lincoln",
        "CityCode": "23015",
        "Lat": "44.06",
        "Lon": "-69.54",
        "Cases": 2941,
        "Status": "confirmed",
        "Date": "2022-01-04T00:00:00Z"
    },
    {
        "Country": "United States of America",
        "CountryCode": "US",
        "Province": "Georgia",
        "City": "Camden",
        "CityCode": "13039",
        "Lat": "30.93",
        "Lon": "-81.67",
        "Cases": 8439,
        "Status": "confirmed",
        "Date": "2022-01-04T00:00:00Z"
    },
    {
        "Country": "United States of America",
        "CountryCode": "US",
        "Province": "Tennessee",
        "City": "Madison",
        "CityCode": "47113",
        "Lat": "35.61",
        "Lon": "-88.84",
        "Cases": 20167,
        "Status": "confirmed",
        "Date": "2022-01-04T00:00:00Z"
    },
    {
        "Country": "United States of America",
        "CountryCode": "US",
        "Province": "Georgia",
        "City": "Jones",
        "CityCode": "13169",
        "Lat": "33.03",
        "Lon": "-83.56",
        "Cases": 3882,
        "Status": "confirmed",
        "Date": "2022-01-04T00:00:00Z"
    },
    {
        "Country": "United States of America",
        "CountryCode": "US",
        "Province": "Tennessee",
        "City": "Bradley",
        "CityCode": "47011",
        "Lat": "35.16",
        "Lon": "-84.86",
        "Cases": 24247,
        "Status": "confirmed",
        "Date": "2022-01-04T00:00:00Z"
    },
    {
        "Country": "United States of America",
        "CountryCode": "US",
        "Province": "California",
        "City": "Sacramento",
        "CityCode": "6067",
        "Lat": "38.45",
        "Lon": "-121.34",
        "Cases": 186019,
        "Status": "confirmed",
        "Date": "2022-01-04T00:00:00Z"
    },
    {
        "Country": "United States of America",
        "CountryCode": "US",
        "Province": "Connecticut",
        "City": "New Haven",
        "CityCode": "9009",
        "Lat": "41.41",
        "Lon": "-72.94",
        "Cases": 143548,
        "Status": "confirmed",
        "Date": "2022-01-04T00:00:00Z"
    },
    {
        "Country": "United States of America",
        "CountryCode": "US",
        "Province": "Missouri",
        "City": "Worth",
        "CityCode": "29227",
        "Lat": "40.48",
        "Lon": "-94.42",
        "Cases": 326,
        "Status": "confirmed",
        "Date": "2022-01-04T00:00:00Z"
    },
    {
        "Country": "United States of America",
        "CountryCode": "US",
        "Province": "Maryland",
        "City": "Unassigned",
        "CityCode": "90024",
        "Lat": "0",
        "Lon": "0",
        "Cases": 604,
        "Status": "confirmed",
        "Date": "2022-01-04T00:00:00Z"
    },
    {
        "Country": "United States of America",
        "CountryCode": "US",
        "Province": "Massachusetts",
        "City": "Bristol",
        "CityCode": "25005",
        "Lat": "41.79",
        "Lon": "-71.11",
        "Cases": 110270,
        "Status": "confirmed",
        "Date": "2022-01-04T00:00:00Z"
    },
    {
        "Country": "United States of America",
        "CountryCode": "US",
        "Province": "Nebraska",
        "City": "Lincoln",
        "CityCode": "31111",
        "Lat": "41.05",
        "Lon": "-100.75",
        "Cases": 6572,
        "Status": "confirmed",
        "Date": "2022-01-04T00:00:00Z"
    },
    {
        "Country": "United States of America",
        "CountryCode": "US",
        "Province": "Kentucky",
        "City": "Green",
        "CityCode": "21087",
        "Lat": "37.26",
        "Lon": "-85.55",
        "Cases": 2691,
        "Status": "confirmed",
        "Date": "2022-01-04T00:00:00Z"
    },
    {
        "Country": "United States of America",
        "CountryCode": "US",
        "Province": "North Carolina",
        "City": "Jones",
        "CityCode": "37103",
        "Lat": "35.02",
        "Lon": "-77.36",
        "Cases": 1477,
        "Status": "confirmed",
        "Date": "2022-01-04T00:00:00Z"
    },
    {
        "Country": "United States of America",
        "CountryCode": "US",
        "Province": "Tennessee",
        "City": "Decatur",
        "CityCode": "47039",
        "Lat": "35.6",
        "Lon": "-88.11",
        "Cases": 2605,
        "Status": "confirmed",
        "Date": "2022-01-04T00:00:00Z"
    },
    {
        "Country": "United States of America",
        "CountryCode": "US",
        "Province": "Georgia",
        "City": "Heard",
        "CityCode": "13149",
        "Lat": "33.3",
        "Lon": "-85.13",
        "Cases": 1678,
        "Status": "confirmed",
        "Date": "2022-01-04T00:00:00Z"
    },
    {
        "Country": "United States of America",
        "CountryCode": "US",
        "Province": "Kentucky",
        "City": "Calloway",
        "CityCode": "21035",
        "Lat": "36.62",
        "Lon": "-88.27",
        "Cases": 5768,
        "Status": "confirmed",
        "Date": "2022-01-04T00:00:00Z"
    },
    {
        "Country": "United States of America",
        "CountryCode": "US",
        "Province": "Vermont",
        "City": "Chittenden",
        "CityCode": "50007",
        "Lat": "44.46",
        "Lon": "-73.08",
        "Cases": 17505,
        "Status": "confirmed",
        "Date": "2022-01-04T00:00:00Z"
    },
    {
        "Country": "United States of America",
        "CountryCode": "US",
        "Province": "Tennessee",
        "City": "Warren",
        "CityCode": "47177",
        "Lat": "35.67",
        "Lon": "-85.78",
        "Cases": 9216,
        "Status": "confirmed",
        "Date": "2022-01-04T00:00:00Z"
    },
    {
        "Country": "United States of America",
        "CountryCode": "US",
        "Province": "North Dakota",
        "City": "Foster",
        "CityCode": "38031",
        "Lat": "47.46",
        "Lon": "-98.88",
        "Cases": 730,
        "Status": "confirmed",
        "Date": "2022-01-04T00:00:00Z"
    },
    {
        "Country": "United States of America",
        "CountryCode": "US",
        "Province": "Kentucky",
        "City": "Gallatin",
        "CityCode": "21077",
        "Lat": "38.75",
        "Lon": "-84.86",
        "Cases": 1553,
        "Status": "confirmed",
        "Date": "2022-01-04T00:00:00Z"
    },
    {
        "Country": "United States of America",
        "CountryCode": "US",
        "Province": "North Carolina",
        "City": "Lee",
        "CityCode": "37105",
        "Lat": "35.48",
        "Lon": "-79.18",
        "Cases": 10658,
        "Status": "confirmed",
        "Date": "2022-01-04T00:00:00Z"
    },
    {
        "Country": "United States of America",
        "CountryCode": "US",
        "Province": "Texas",
        "City": "Clay",
        "CityCode": "48077",
        "Lat": "33.79",
        "Lon": "-98.21",
        "Cases": 1673,
        "Status": "confirmed",
        "Date": "2022-01-04T00:00:00Z"
    },
    {
        "Country": "United States of America",
        "CountryCode": "US",
        "Province": "Nebraska",
        "City": "Franklin",
        "CityCode": "31061",
        "Lat": "40.18",
        "Lon": "-98.95",
        "Cases": 359,
        "Status": "confirmed",
        "Date": "2022-01-04T00:00:00Z"
    },
    {
        "Country": "United States of America",
        "CountryCode": "US",
        "Province": "Mississippi",
        "City": "Lawrence",
        "CityCode": "28077",
        "Lat": "31.55",
        "Lon": "-90.11",
        "Cases": 2446,
        "Status": "confirmed",
        "Date": "2022-01-04T00:00:00Z"
    },
    {
        "Country": "United States of America",
        "CountryCode": "US",
        "Province": "Colorado",
        "City": "Teller",
        "CityCode": "8119",
        "Lat": "38.88",
        "Lon": "-105.16",
        "Cases": 3623,
        "Status": "confirmed",
        "Date": "2022-01-04T00:00:00Z"
    },
    {
        "Country": "United States of America",
        "CountryCode": "US",
        "Province": "Virginia",
        "City": "Waynesboro",
        "CityCode": "51820",
        "Lat": "38.06",
        "Lon": "-78.9",
        "Cases": 4154,
        "Status": "confirmed",
        "Date": "2022-01-04T00:00:00Z"
    },
    {
        "Country": "United States of America",
        "CountryCode": "US",
        "Province": "Montana",
        "City": "Petroleum",
        "CityCode": "30069",
        "Lat": "47.12",
        "Lon": "-108.25",
        "Cases": 27,
        "Status": "confirmed",
        "Date": "2022-01-04T00:00:00Z"
    },
    {
        "Country": "United States of America",
        "CountryCode": "US",
        "Province": "South Dakota",
        "City": "Potter",
        "CityCode": "46107",
        "Lat": "45.07",
        "Lon": "-99.95",
        "Cases": 522,
        "Status": "confirmed",
        "Date": "2022-01-04T00:00:00Z"
    },
    {
        "Country": "United States of America",
        "CountryCode": "US",
        "Province": "Iowa",
        "City": "Allamakee",
        "CityCode": "19005",
        "Lat": "43.28",
        "Lon": "-91.38",
        "Cases": 2317,
        "Status": "confirmed",
        "Date": "2022-01-04T00:00:00Z"
    },
    {
        "Country": "United States of America",
        "CountryCode": "US",
        "Province": "New York",
        "City": "Unassigned",
        "CityCode": "90036",
        "Lat": "0",
        "Lon": "0",
        "Cases": 235,
        "Status": "confirmed",
        "Date": "2022-01-04T00:00:00Z"
    },
    {
        "Country": "United States of America",
        "CountryCode": "US",
        "Province": "West Virginia",
        "City": "Hancock",
        "CityCode": "54029",
        "Lat": "40.52",
        "Lon": "-80.57",
        "Cases": 5224,
        "Status": "confirmed",
        "Date": "2022-01-04T00:00:00Z"
    },
    {
        "Country": "United States of America",
        "CountryCode": "US",
        "Province": "Arkansas",
        "City": "Monroe",
        "CityCode": "5095",
        "Lat": "34.68",
        "Lon": "-91.21",
        "Cases": 1292,
        "Status": "confirmed",
        "Date": "2022-01-04T00:00:00Z"
    },
    {
        "Country": "United States of America",
        "CountryCode": "US",
        "Province": "Montana",
        "City": "Deer Lodge",
        "CityCode": "30023",
        "Lat": "46.06",
        "Lon": "-113.07",
        "Cases": 1706,
        "Status": "confirmed",
        "Date": "2022-01-04T00:00:00Z"
    },
    {
        "Country": "United States of America",
        "CountryCode": "US",
        "Province": "Pennsylvania",
        "City": "Washington",
        "CityCode": "42125",
        "Lat": "40.19",
        "Lon": "-80.25",
        "Cases": 36720,
        "Status": "confirmed",
        "Date": "2022-01-04T00:00:00Z"
    },
    {
        "Country": "United States of America",
        "CountryCode": "US",
        "Province": "Ohio",
        "City": "Hardin",
        "CityCode": "39065",
        "Lat": "40.66",
        "Lon": "-83.66",
        "Cases": 5553,
        "Status": "confirmed",
        "Date": "2022-01-04T00:00:00Z"
    },
    {
        "Country": "United States of America",
        "CountryCode": "US",
        "Province": "Tennessee",
        "City": "White",
        "CityCode": "47185",
        "Lat": "35.93",
        "Lon": "-85.46",
        "Cases": 6071,
        "Status": "confirmed",
        "Date": "2022-01-04T00:00:00Z"
    },
    {
        "Country": "United States of America",
        "CountryCode": "US",
        "Province": "Michigan",
        "City": "Wayne",
        "CityCode": "26163",
        "Lat": "42.28",
        "Lon": "-83.28",
        "Cases": 294630,
        "Status": "confirmed",
        "Date": "2022-01-04T00:00:00Z"
    },
    {
        "Country": "United States of America",
        "CountryCode": "US",
        "Province": "Illinois",
        "City": "Wayne",
        "CityCode": "17191",
        "Lat": "38.43",
        "Lon": "-88.43",
        "Cases": 3667,
        "Status": "confirmed",
        "Date": "2022-01-04T00:00:00Z"
    },
    {
        "Country": "United States of America",
        "CountryCode": "US",
        "Province": "Kentucky",
        "City": "Greenup",
        "CityCode": "21089",
        "Lat": "38.54",
        "Lon": "-82.92",
        "Cases": 7879,
        "Status": "confirmed",
        "Date": "2022-01-04T00:00:00Z"
    },
    {
        "Country": "United States of America",
        "CountryCode": "US",
        "Province": "Missouri",
        "City": "Taney",
        "CityCode": "29213",
        "Lat": "36.65",
        "Lon": "-93.04",
        "Cases": 10224,
        "Status": "confirmed",
        "Date": "2022-01-04T00:00:00Z"
    },
    {
        "Country": "United States of America",
        "CountryCode": "US",
        "Province": "Virginia",
        "City": "Goochland",
        "CityCode": "51075",
        "Lat": "37.72",
        "Lon": "-77.9",
        "Cases": 2708,
        "Status": "confirmed",
        "Date": "2022-01-04T00:00:00Z"
    },
    {
        "Country": "United States of America",
        "CountryCode": "US",
        "Province": "Oklahoma",
        "City": "Beckham",
        "CityCode": "40009",
        "Lat": "35.27",
        "Lon": "-99.68",
        "Cases": 4248,
        "Status": "confirmed",
        "Date": "2022-01-04T00:00:00Z"
    },
    {
        "Country": "United States of America",
        "CountryCode": "US",
        "Province": "Indiana",
        "City": "Greene",
        "CityCode": "18055",
        "Lat": "39.04",
        "Lon": "-86.96",
        "Cases": 5313,
        "Status": "confirmed",
        "Date": "2022-01-04T00:00:00Z"
    },
    {
        "Country": "United States of America",
        "CountryCode": "US",
        "Province": "North Dakota",
        "City": "Golden Valley",
        "CityCode": "38033",
        "Lat": "46.94",
        "Lon": "-103.85",
        "Cases": 393,
        "Status": "confirmed",
        "Date": "2022-01-04T00:00:00Z"
    },
    {
        "Country": "United States of America",
        "CountryCode": "US",
        "Province": "Mississippi",
        "City": "Tunica",
        "CityCode": "28143",
        "Lat": "34.65",
        "Lon": "-90.37",
        "Cases": 1906,
        "Status": "confirmed",
        "Date": "2022-01-04T00:00:00Z"
    },
    {
        "Country": "United States of America",
        "CountryCode": "US",
        "Province": "Florida",
        "City": "Manatee",
        "CityCode": "12081",
        "Lat": "27.47",
        "Lon": "-82.32",
        "Cases": 70594,
        "Status": "confirmed",
        "Date": "2022-01-04T00:00:00Z"
    },
    {
        "Country": "United States of America",
        "CountryCode": "US",
        "Province": "Virginia",
        "City": "Albemarle",
        "CityCode": "51003",
        "Lat": "38.02",
        "Lon": "-78.55",
        "Cases": 10219,
        "Status": "confirmed",
        "Date": "2022-01-04T00:00:00Z"
    },
    {
        "Country": "United States of America",
        "CountryCode": "US",
        "Province": "North Dakota",
        "City": "Griggs",
        "CityCode": "38039",
        "Lat": "47.46",
        "Lon": "-98.24",
        "Cases": 463,
        "Status": "confirmed",
        "Date": "2022-01-04T00:00:00Z"
    },
    {
        "Country": "United States of America",
        "CountryCode": "US",
        "Province": "Indiana",
        "City": "Vigo",
        "CityCode": "18167",
        "Lat": "39.43",
        "Lon": "-87.39",
        "Cases": 21677,
        "Status": "confirmed",
        "Date": "2022-01-04T00:00:00Z"
    },
    {
        "Country": "United States of America",
        "CountryCode": "US",
        "Province": "Illinois",
        "City": "Fayette",
        "CityCode": "17051",
        "Lat": "39",
        "Lon": "-89.02",
        "Cases": 5288,
        "Status": "confirmed",
        "Date": "2022-01-04T00:00:00Z"
    },
    {
        "Country": "United States of America",
        "CountryCode": "US",
        "Province": "New Mexico",
        "City": "Roosevelt",
        "CityCode": "35041",
        "Lat": "34.02",
        "Lon": "-103.48",
        "Cases": 3584,
        "Status": "confirmed",
        "Date": "2022-01-04T00:00:00Z"
    },
    {
        "Country": "United States of America",
        "CountryCode": "US",
        "Province": "Wisconsin",
        "City": "Washburn",
        "CityCode": "55129",
        "Lat": "45.9",
        "Lon": "-91.79",
        "Cases": 3154,
        "Status": "confirmed",
        "Date": "2022-01-04T00:00:00Z"
    },
    {
        "Country": "United States of America",
        "CountryCode": "US",
        "Province": "Michigan",
        "City": "Monroe",
        "CityCode": "26115",
        "Lat": "41.93",
        "Lon": "-83.54",
        "Cases": 28249,
        "Status": "confirmed",
        "Date": "2022-01-04T00:00:00Z"
    },
    {
        "Country": "United States of America",
        "CountryCode": "US",
        "Province": "Missouri",
        "City": "Mercer",
        "CityCode": "29129",
        "Lat": "40.42",
        "Lon": "-93.57",
        "Cases": 542,
        "Status": "confirmed",
        "Date": "2022-01-04T00:00:00Z"
    },
    {
        "Country": "United States of America",
        "CountryCode": "US",
        "Province": "Tennessee",
        "City": "Hancock",
        "CityCode": "47067",
        "Lat": "36.53",
        "Lon": "-83.22",
        "Cases": 1444,
        "Status": "confirmed",
        "Date": "2022-01-04T00:00:00Z"
    },
    {
        "Country": "United States of America",
        "CountryCode": "US",
        "Province": "Alaska",
        "City": "Out of AK",
        "CityCode": "80002",
        "Lat": "0",
        "Lon": "0",
        "Cases": 0,
        "Status": "confirmed",
        "Date": "2022-01-04T00:00:00Z"
    },
    {
        "Country": "United States of America",
        "CountryCode": "US",
        "Province": "Oklahoma",
        "City": "Choctaw",
        "CityCode": "40023",
        "Lat": "34.03",
        "Lon": "-95.55",
        "Cases": 2869,
        "Status": "confirmed",
        "Date": "2022-01-04T00:00:00Z"
    },
    {
        "Country": "United States of America",
        "CountryCode": "US",
        "Province": "Minnesota",
        "City": "Redwood",
        "CityCode": "27127",
        "Lat": "44.41",
        "Lon": "-95.25",
        "Cases": 3047,
        "Status": "confirmed",
        "Date": "2022-01-04T00:00:00Z"
    },
    {
        "Country": "United States of America",
        "CountryCode": "US",
        "Province": "Illinois",
        "City": "McDonough",
        "CityCode": "17109",
        "Lat": "40.46",
        "Lon": "-90.68",
        "Cases": 4903,
        "Status": "confirmed",
        "Date": "2022-01-04T00:00:00Z"
    },
    {
        "Country": "United States of America",
        "CountryCode": "US",
        "Province": "Texas",
        "City": "Uvalde",
        "CityCode": "48463",
        "Lat": "29.36",
        "Lon": "-99.76",
        "Cases": 6855,
        "Status": "confirmed",
        "Date": "2022-01-04T00:00:00Z"
    },
    {
        "Country": "United States of America",
        "CountryCode": "US",
        "Province": "Mississippi",
        "City": "Grenada",
        "CityCode": "28043",
        "Lat": "33.77",
        "Lon": "-89.8",
        "Cases": 4091,
        "Status": "confirmed",
        "Date": "2022-01-04T00:00:00Z"
    },
    {
        "Country": "United States of America",
        "CountryCode": "US",
        "Province": "Minnesota",
        "City": "Pope",
        "CityCode": "27121",
        "Lat": "45.59",
        "Lon": "-95.44",
        "Cases": 2292,
        "Status": "confirmed",
        "Date": "2022-01-04T00:00:00Z"
    },
    {
        "Country": "United States of America",
        "CountryCode": "US",
        "Province": "Indiana",
        "City": "Wayne",
        "CityCode": "18177",
        "Lat": "39.86",
        "Lon": "-85.01",
        "Cases": 13748,
        "Status": "confirmed",
        "Date": "2022-01-04T00:00:00Z"
    },
    {
        "Country": "United States of America",
        "CountryCode": "US",
        "Province": "Texas",
        "City": "Victoria",
        "CityCode": "48469",
        "Lat": "28.8",
        "Lon": "-96.97",
        "Cases": 13594,
        "Status": "confirmed",
        "Date": "2022-01-04T00:00:00Z"
    },
    {
        "Country": "United States of America",
        "CountryCode": "US",
        "Province": "Indiana",
        "City": "Dubois",
        "CityCode": "18037",
        "Lat": "38.37",
        "Lon": "-86.88",
        "Cases": 9590,
        "Status": "confirmed",
        "Date": "2022-01-04T00:00:00Z"
    },
    {
        "Country": "United States of America",
        "CountryCode": "US",
        "Province": "Missouri",
        "City": "Butler",
        "CityCode": "29023",
        "Lat": "36.71",
        "Lon": "-90.4",
        "Cases": 7498,
        "Status": "confirmed",
        "Date": "2022-01-04T00:00:00Z"
    },
    {
        "Country": "United States of America",
        "CountryCode": "US",
        "Province": "Texas",
        "City": "Winkler",
        "CityCode": "48495",
        "Lat": "31.85",
        "Lon": "-103.05",
        "Cases": 1421,
        "Status": "confirmed",
        "Date": "2022-01-04T00:00:00Z"
    },
    {
        "Country": "United States of America",
        "CountryCode": "US",
        "Province": "Mississippi",
        "City": "Pike",
        "CityCode": "28113",
        "Lat": "31.18",
        "Lon": "-90.4",
        "Cases": 6512,
        "Status": "confirmed",
        "Date": "2022-01-04T00:00:00Z"
    },
    {
        "Country": "United States of America",
        "CountryCode": "US",
        "Province": "Missouri",
        "City": "Clark",
        "CityCode": "29045",
        "Lat": "40.41",
        "Lon": "-91.74",
        "Cases": 1291,
        "Status": "confirmed",
        "Date": "2022-01-04T00:00:00Z"
    },
    {
        "Country": "United States of America",
        "CountryCode": "US",
        "Province": "Washington",
        "City": "Pacific",
        "CityCode": "53049",
        "Lat": "46.55",
        "Lon": "-123.73",
        "Cases": 2083,
        "Status": "confirmed",
        "Date": "2022-01-04T00:00:00Z"
    },
    {
        "Country": "United States of America",
        "CountryCode": "US",
        "Province": "Kansas",
        "City": "Crawford",
        "CityCode": "20037",
        "Lat": "37.51",
        "Lon": "-94.85",
        "Cases": 8031,
        "Status": "confirmed",
        "Date": "2022-01-04T00:00:00Z"
    },
    {
        "Country": "United States of America",
        "CountryCode": "US",
        "Province": "California",
        "City": "Sutter",
        "CityCode": "6101",
        "Lat": "39.03",
        "Lon": "-121.69",
        "Cases": 15407,
        "Status": "confirmed",
        "Date": "2022-01-04T00:00:00Z"
    },
    {
        "Country": "United States of America",
        "CountryCode": "US",
        "Province": "Kentucky",
        "City": "Campbell",
        "CityCode": "21037",
        "Lat": "38.94",
        "Lon": "-84.38",
        "Cases": 15612,
        "Status": "confirmed",
        "Date": "2022-01-04T00:00:00Z"
    },
    {
        "Country": "United States of America",
        "CountryCode": "US",
        "Province": "Pennsylvania",
        "City": "Clinton",
        "CityCode": "42035",
        "Lat": "41.23",
        "Lon": "-77.64",
        "Cases": 6924,
        "Status": "confirmed",
        "Date": "2022-01-04T00:00:00Z"
    },
    {
        "Country": "United States of America",
        "CountryCode": "US",
        "Province": "New Mexico",
        "City": "San Juan",
        "CityCode": "35045",
        "Lat": "36.51",
        "Lon": "-108.32",
        "Cases": 28798,
        "Status": "confirmed",
        "Date": "2022-01-04T00:00:00Z"
    },
    {
        "Country": "United States of America",
        "CountryCode": "US",
        "Province": "Illinois",
        "City": "Effingham",
        "CityCode": "17049",
        "Lat": "39.06",
        "Lon": "-88.59",
        "Cases": 8126,
        "Status": "confirmed",
        "Date": "2022-01-04T00:00:00Z"
    },
    {
        "Country": "United States of America",
        "CountryCode": "US",
        "Province": "Washington",
        "City": "Benton",
        "CityCode": "53005",
        "Lat": "46.24",
        "Lon": "-119.51",
        "Cases": 34072,
        "Status": "confirmed",
        "Date": "2022-01-04T00:00:00Z"
    },
    {
        "Country": "United States of America",
        "CountryCode": "US",
        "Province": "Washington",
        "City": "Unassigned",
        "CityCode": "90053",
        "Lat": "0",
        "Lon": "0",
        "Cases": 1723,
        "Status": "confirmed",
        "Date": "2022-01-04T00:00:00Z"
    },
    {
        "Country": "United States of America",
        "CountryCode": "US",
        "Province": "Colorado",
        "City": "Dolores",
        "CityCode": "8033",
        "Lat": "37.75",
        "Lon": "-108.52",
        "Cases": 291,
        "Status": "confirmed",
        "Date": "2022-01-04T00:00:00Z"
    },
    {
        "Country": "United States of America",
        "CountryCode": "US",
        "Province": "Mississippi",
        "City": "Calhoun",
        "CityCode": "28013",
        "Lat": "33.94",
        "Lon": "-89.34",
        "Cases": 3101,
        "Status": "confirmed",
        "Date": "2022-01-04T00:00:00Z"
    },
    {
        "Country": "United States of America",
        "CountryCode": "US",
        "Province": "Oklahoma",
        "City": "Latimer",
        "CityCode": "40077",
        "Lat": "34.88",
        "Lon": "-95.25",
        "Cases": 1633,
        "Status": "confirmed",
        "Date": "2022-01-04T00:00:00Z"
    },
    {
        "Country": "United States of America",
        "CountryCode": "US",
        "Province": "Georgia",
        "City": "Warren",
        "CityCode": "13301",
        "Lat": "33.41",
        "Lon": "-82.68",
        "Cases": 834,
        "Status": "confirmed",
        "Date": "2022-01-04T00:00:00Z"
    },
    {
        "Country": "United States of America",
        "CountryCode": "US",
        "Province": "Minnesota",
        "City": "Meeker",
        "CityCode": "27093",
        "Lat": "45.12",
        "Lon": "-94.53",
        "Cases": 4765,
        "Status": "confirmed",
        "Date": "2022-01-04T00:00:00Z"
    },
    {
        "Country": "United States of America",
        "CountryCode": "US",
        "Province": "Ohio",
        "City": "Meigs",
        "CityCode": "39105",
        "Lat": "39.09",
        "Lon": "-82.03",
        "Cases": 3358,
        "Status": "confirmed",
        "Date": "2022-01-04T00:00:00Z"
    },
    {
        "Country": "United States of America",
        "CountryCode": "US",
        "Province": "Louisiana",
        "City": "Richland",
        "CityCode": "22083",
        "Lat": "32.41",
        "Lon": "-91.77",
        "Cases": 4630,
        "Status": "confirmed",
        "Date": "2022-01-04T00:00:00Z"
    },
    {
        "Country": "United States of America",
        "CountryCode": "US",
        "Province": "Iowa",
        "City": "O'Brien",
        "CityCode": "19141",
        "Lat": "43.08",
        "Lon": "-95.62",
        "Cases": 2685,
        "Status": "confirmed",
        "Date": "2022-01-04T00:00:00Z"
    },
    {
        "Country": "United States of America",
        "CountryCode": "US",
        "Province": "Indiana",
        "City": "Wells",
        "CityCode": "18179",
        "Lat": "40.73",
        "Lon": "-85.22",
        "Cases": 5375,
        "Status": "confirmed",
        "Date": "2022-01-04T00:00:00Z"
    },
    {
        "Country": "United States of America",
        "CountryCode": "US",
        "Province": "Nebraska",
        "City": "Cass",
        "CityCode": "31025",
        "Lat": "40.91",
        "Lon": "-96.14",
        "Cases": 4410,
        "Status": "confirmed",
        "Date": "2022-01-04T00:00:00Z"
    },
    {
        "Country": "United States of America",
        "CountryCode": "US",
        "Province": "Georgia",
        "City": "Twiggs",
        "CityCode": "13289",
        "Lat": "32.67",
        "Lon": "-83.43",
        "Cases": 1220,
        "Status": "confirmed",
        "Date": "2022-01-04T00:00:00Z"
    },
    {
        "Country": "United States of America",
        "CountryCode": "US",
        "Province": "Idaho",
        "City": "Owyhee",
        "CityCode": "16073",
        "Lat": "42.58",
        "Lon": "-116.17",
        "Cases": 1767,
        "Status": "confirmed",
        "Date": "2022-01-04T00:00:00Z"
    },
    {
        "Country": "United States of America",
        "CountryCode": "US",
        "Province": "Texas",
        "City": "Brewster",
        "CityCode": "48043",
        "Lat": "29.81",
        "Lon": "-103.25",
        "Cases": 1119,
        "Status": "confirmed",
        "Date": "2022-01-04T00:00:00Z"
    },
    {
        "Country": "United States of America",
        "CountryCode": "US",
        "Province": "Texas",
        "City": "Edwards",
        "CityCode": "48137",
        "Lat": "29.98",
        "Lon": "-100.3",
        "Cases": 348,
        "Status": "confirmed",
        "Date": "2022-01-04T00:00:00Z"
    },
    {
        "Country": "United States of America",
        "CountryCode": "US",
        "Province": "Indiana",
        "City": "Tipton",
        "CityCode": "18159",
        "Lat": "40.31",
        "Lon": "-86.05",
        "Cases": 2774,
        "Status": "confirmed",
        "Date": "2022-01-04T00:00:00Z"
    },
    {
        "Country": "United States of America",
        "CountryCode": "US",
        "Province": "Michigan",
        "City": "Newaygo",
        "CityCode": "26123",
        "Lat": "43.55",
        "Lon": "-85.8",
        "Cases": 8989,
        "Status": "confirmed",
        "Date": "2022-01-04T00:00:00Z"
    },
    {
        "Country": "United States of America",
        "CountryCode": "US",
        "Province": "Kansas",
        "City": "Osage",
        "CityCode": "20139",
        "Lat": "38.65",
        "Lon": "-95.73",
        "Cases": 2715,
        "Status": "confirmed",
        "Date": "2022-01-04T00:00:00Z"
    },
    {
        "Country": "United States of America",
        "CountryCode": "US",
        "Province": "Georgia",
        "City": "Randolph",
        "CityCode": "13243",
        "Lat": "31.77",
        "Lon": "-84.76",
        "Cases": 1069,
        "Status": "confirmed",
        "Date": "2022-01-04T00:00:00Z"
    },
    {
        "Country": "United States of America",
        "CountryCode": "US",
        "Province": "Oklahoma",
        "City": "Osage",
        "CityCode": "40113",
        "Lat": "36.63",
        "Lon": "-96.4",
        "Cases": 7556,
        "Status": "confirmed",
        "Date": "2022-01-04T00:00:00Z"
    },
    {
        "Country": "United States of America",
        "CountryCode": "US",
        "Province": "Michigan",
        "City": "Clinton",
        "CityCode": "26037",
        "Lat": "42.94",
        "Lon": "-84.6",
        "Cases": 14619,
        "Status": "confirmed",
        "Date": "2022-01-04T00:00:00Z"
    },
    {
        "Country": "United States of America",
        "CountryCode": "US",
        "Province": "North Carolina",
        "City": "Stanly",
        "CityCode": "37167",
        "Lat": "35.32",
        "Lon": "-80.25",
        "Cases": 13405,
        "Status": "confirmed",
        "Date": "2022-01-04T00:00:00Z"
    },
    {
        "Country": "United States of America",
        "CountryCode": "US",
        "Province": "Arkansas",
        "City": "Unassigned",
        "CityCode": "90005",
        "Lat": "0",
        "Lon": "0",
        "Cases": 7841,
        "Status": "confirmed",
        "Date": "2022-01-04T00:00:00Z"
    },
    {
        "Country": "United States of America",
        "CountryCode": "US",
        "Province": "Alabama",
        "City": "Dallas",
        "CityCode": "1047",
        "Lat": "32.33",
        "Lon": "-87.11",
        "Cases": 5736,
        "Status": "confirmed",
        "Date": "2022-01-04T00:00:00Z"
    },
    {
        "Country": "United States of America",
        "CountryCode": "US",
        "Province": "Wisconsin",
        "City": "Crawford",
        "CityCode": "55023",
        "Lat": "43.24",
        "Lon": "-90.93",
        "Cases": 3068,
        "Status": "confirmed",
        "Date": "2022-01-04T00:00:00Z"
    },
    {
        "Country": "United States of America",
        "CountryCode": "US",
        "Province": "Washington",
        "City": "Mason",
        "CityCode": "53045",
        "Lat": "47.35",
        "Lon": "-123.19",
        "Cases": 7206,
        "Status": "confirmed",
        "Date": "2022-01-04T00:00:00Z"
    },
    {
        "Country": "United States of America",
        "CountryCode": "US",
        "Province": "California",
        "City": "El Dorado",
        "CityCode": "6017",
        "Lat": "38.78",
        "Lon": "-120.52",
        "Cases": 20118,
        "Status": "confirmed",
        "Date": "2022-01-04T00:00:00Z"
    },
    {
        "Country": "United States of America",
        "CountryCode": "US",
        "Province": "Mississippi",
        "City": "Newton",
        "CityCode": "28101",
        "Lat": "32.4",
        "Lon": "-89.12",
        "Cases": 4124,
        "Status": "confirmed",
        "Date": "2022-01-04T00:00:00Z"
    },
    {
        "Country": "United States of America",
        "CountryCode": "US",
        "Province": "West Virginia",
        "City": "Doddridge",
        "CityCode": "54017",
        "Lat": "39.27",
        "Lon": "-80.71",
        "Cases": 1568,
        "Status": "confirmed",
        "Date": "2022-01-04T00:00:00Z"
    },
    {
        "Country": "United States of America",
        "CountryCode": "US",
        "Province": "Missouri",
        "City": "Randolph",
        "CityCode": "29175",
        "Lat": "39.44",
        "Lon": "-92.5",
        "Cases": 4365,
        "Status": "confirmed",
        "Date": "2022-01-04T00:00:00Z"
    },
    {
        "Country": "United States of America",
        "CountryCode": "US",
        "Province": "Alabama",
        "City": "Perry",
        "CityCode": "1105",
        "Lat": "32.64",
        "Lon": "-87.3",
        "Cases": 1495,
        "Status": "confirmed",
        "Date": "2022-01-04T00:00:00Z"
    },
    {
        "Country": "United States of America",
        "CountryCode": "US",
        "Province": "Ohio",
        "City": "Carroll",
        "CityCode": "39019",
        "Lat": "40.58",
        "Lon": "-81.09",
        "Cases": 4357,
        "Status": "confirmed",
        "Date": "2022-01-04T00:00:00Z"
    },
    {
        "Country": "United States of America",
        "CountryCode": "US",
        "Province": "Ohio",
        "City": "Morgan",
        "CityCode": "39115",
        "Lat": "39.62",
        "Lon": "-81.85",
        "Cases": 2453,
        "Status": "confirmed",
        "Date": "2022-01-04T00:00:00Z"
    },
    {
        "Country": "United States of America",
        "CountryCode": "US",
        "Province": "Oregon",
        "City": "Harney",
        "CityCode": "41025",
        "Lat": "43.06",
        "Lon": "-118.97",
        "Cases": 1265,
        "Status": "confirmed",
        "Date": "2022-01-04T00:00:00Z"
    },
    {
        "Country": "United States of America",
        "CountryCode": "US",
        "Province": "Rhode Island",
        "City": "Kent",
        "CityCode": "44003",
        "Lat": "41.67",
        "Lon": "-71.58",
        "Cases": 29360,
        "Status": "confirmed",
        "Date": "2022-01-04T00:00:00Z"
    },
    {
        "Country": "United States of America",
        "CountryCode": "US",
        "Province": "Oklahoma",
        "City": "Okmulgee",
        "CityCode": "40111",
        "Lat": "35.65",
        "Lon": "-95.96",
        "Cases": 6606,
        "Status": "confirmed",
        "Date": "2022-01-04T00:00:00Z"
    },
    {
        "Country": "United States of America",
        "CountryCode": "US",
        "Province": "Minnesota",
        "City": "Otter Tail",
        "CityCode": "27111",
        "Lat": "46.41",
        "Lon": "-95.71",
        "Cases": 10627,
        "Status": "confirmed",
        "Date": "2022-01-04T00:00:00Z"
    },
    {
        "Country": "United States of America",
        "CountryCode": "US",
        "Province": "Texas",
        "City": "Brooks",
        "CityCode": "48047",
        "Lat": "27.03",
        "Lon": "-98.22",
        "Cases": 1175,
        "Status": "confirmed",
        "Date": "2022-01-04T00:00:00Z"
    },
    {
        "Country": "United States of America",
        "CountryCode": "US",
        "Province": "Oklahoma",
        "City": "Seminole",
        "CityCode": "40133",
        "Lat": "35.16",
        "Lon": "-96.62",
        "Cases": 4179,
        "Status": "confirmed",
        "Date": "2022-01-04T00:00:00Z"
    },
    {
        "Country": "United States of America",
        "CountryCode": "US",
        "Province": "North Carolina",
        "City": "Stokes",
        "CityCode": "37169",
        "Lat": "36.4",
        "Lon": "-80.24",
        "Cases": 7773,
        "Status": "confirmed",
        "Date": "2022-01-04T00:00:00Z"
    },
    {
        "Country": "United States of America",
        "CountryCode": "US",
        "Province": "New Mexico",
        "City": "Los Alamos",
        "CityCode": "35028",
        "Lat": "35.87",
        "Lon": "-106.31",
        "Cases": 1135,
        "Status": "confirmed",
        "Date": "2022-01-04T00:00:00Z"
    },
    {
        "Country": "United States of America",
        "CountryCode": "US",
        "Province": "Puerto Rico",
        "City": "Catano",
        "CityCode": "72033",
        "Lat": "18.44",
        "Lon": "-66.14",
        "Cases": 2457,
        "Status": "confirmed",
        "Date": "2022-01-04T00:00:00Z"
    },
    {
        "Country": "United States of America",
        "CountryCode": "US",
        "Province": "Arkansas",
        "City": "Clay",
        "CityCode": "5021",
        "Lat": "36.37",
        "Lon": "-90.41",
        "Cases": 2995,
        "Status": "confirmed",
        "Date": "2022-01-04T00:00:00Z"
    },
    {
        "Country": "United States of America",
        "CountryCode": "US",
        "Province": "Ohio",
        "City": "Hancock",
        "CityCode": "39063",
        "Lat": "41",
        "Lon": "-83.67",
        "Cases": 13217,
        "Status": "confirmed",
        "Date": "2022-01-04T00:00:00Z"
    },
    {
        "Country": "United States of America",
        "CountryCode": "US",
        "Province": "Wisconsin",
        "City": "Marathon",
        "CityCode": "55073",
        "Lat": "44.9",
        "Lon": "-89.76",
        "Cases": 29310,
        "Status": "confirmed",
        "Date": "2022-01-04T00:00:00Z"
    },
    {
        "Country": "United States of America",
        "CountryCode": "US",
        "Province": "Georgia",
        "City": "Tattnall",
        "CityCode": "13267",
        "Lat": "32.05",
        "Lon": "-82.06",
        "Cases": 3953,
        "Status": "confirmed",
        "Date": "2022-01-04T00:00:00Z"
    },
    {
        "Country": "United States of America",
        "CountryCode": "US",
        "Province": "North Carolina",
        "City": "Graham",
        "CityCode": "37075",
        "Lat": "35.35",
        "Lon": "-83.83",
        "Cases": 1501,
        "Status": "confirmed",
        "Date": "2022-01-04T00:00:00Z"
    },
    {
        "Country": "United States of America",
        "CountryCode": "US",
        "Province": "Minnesota",
        "City": "Koochiching",
        "CityCode": "27071",
        "Lat": "48.25",
        "Lon": "-93.78",
        "Cases": 2013,
        "Status": "confirmed",
        "Date": "2022-01-04T00:00:00Z"
    },
    {
        "Country": "United States of America",
        "CountryCode": "US",
        "Province": "North Dakota",
        "City": "Barnes",
        "CityCode": "38003",
        "Lat": "46.94",
        "Lon": "-98.07",
        "Cases": 2252,
        "Status": "confirmed",
        "Date": "2022-01-04T00:00:00Z"
    },
    {
        "Country": "United States of America",
        "CountryCode": "US",
        "Province": "Pennsylvania",
        "City": "Juniata",
        "CityCode": "42067",
        "Lat": "40.53",
        "Lon": "-77.4",
        "Cases": 3875,
        "Status": "confirmed",
        "Date": "2022-01-04T00:00:00Z"
    },
    {
        "Country": "United States of America",
        "CountryCode": "US",
        "Province": "Indiana",
        "City": "Monroe",
        "CityCode": "18105",
        "Lat": "39.16",
        "Lon": "-86.52",
        "Cases": 18726,
        "Status": "confirmed",
        "Date": "2022-01-04T00:00:00Z"
    },
    {
        "Country": "United States of America",
        "CountryCode": "US",
        "Province": "North Dakota",
        "City": "Kidder",
        "CityCode": "38043",
        "Lat": "46.98",
        "Lon": "-99.78",
        "Cases": 408,
        "Status": "confirmed",
        "Date": "2022-01-04T00:00:00Z"
    },
    {
        "Country": "United States of America",
        "CountryCode": "US",
        "Province": "Georgia",
        "City": "Barrow",
        "CityCode": "13013",
        "Lat": "33.99",
        "Lon": "-83.71",
        "Cases": 17031,
        "Status": "confirmed",
        "Date": "2022-01-04T00:00:00Z"
    },
    {
        "Country": "United States of America",
        "CountryCode": "US",
        "Province": "Alabama",
        "City": "Coffee",
        "CityCode": "1031",
        "Lat": "31.4",
        "Lon": "-85.99",
        "Cases": 9950,
        "Status": "confirmed",
        "Date": "2022-01-04T00:00:00Z"
    },